{"records":[{"id":"reclJy9MBsHmAGCWR","fields":{"name":"Corona-Impfzentrum Landkreis Bergstraße","lat":49.6881519,"lon":8.6081129,"addr:street":"Berliner Ring","addr:housenumber":"89","postal_code":["recQ7AXXnaEoNjcfs"],"region":"Kreis Bergstraße","city":["64625 Bensheim"]},"createdTime":"2021-05-10T14:47:45.000Z"},{"id":"rec1bwepah7wuJIUr","fields":{"name":"Impfzentrum Kreis Groß-Gerau","lat":49.9164266,"lon":8.4754306,"postal_code":["recJTfmrraQZKmpvd"],"region":"Kreis Groß-Gerau","city":["64521 Groß-Gerau"]},"createdTime":"2021-05-10T14:47:45.000Z"},{"id":"reclecJ4px8eCgOYa","fields":{"name":"Impfzentrum Landkreis Darmstadt-Dieburg","lat":49.8131729,"lon":8.615718,"addr:street":"Ostendstraße","addr:housenumber":"3","postal_code":["recnzcHf6S8DdUtrI"],"region":"Landkreis Darmstadt-Dieburg","city":["64319 Pfungstadt"]},"createdTime":"2021-05-10T14:47:45.000Z"},{"id":"recF0k3MpzIgO41Uj","fields":{"name":"Impfzentrum Darmstadt","lat":49.8745287,"lon":8.6577973,"postal_code":["recvXbCYrj1mAhcvo"],"region":"Darmstadt","city":["64283 Darmstadt"]},"createdTime":"2021-05-10T14:47:45.000Z"},{"id":"recU1hFYWWV5X5dRL","fields":{"name":"Impfzentrum Odenwaldkreis","lat":49.6628628,"lon":8.9972437,"postal_code":["recPwv9RzL28rODX3"],"region":"Odenwaldkreis","city":["64711 Erbach"]},"createdTime":"2021-05-10T14:47:45.000Z"},{"id":"recWaF9g8jPn2oQoe","fields":{"name":"Impfzentrum Landkreis Darmstadt-Dieburg","lat":49.8322442,"lon":8.8404665,"addr:street":"Am Sportzentrum","addr:housenumber":"1a","postal_code":["recK5zNO8rTAfSVye"],"region":"Landkreis Darmstadt-Dieburg","city":["64354 Reinheim"]},"createdTime":"2021-05-10T14:47:45.000Z"},{"id":"recaseaVr5AoyBWJv","fields":{"name":"Impfzentrum Rheingau-Taunus-Kreis","lat":50.0373299,"lon":8.1139758,"addr:street":"Wiesweg","addr:housenumber":"7","postal_code":["recX8mDaiJQHbMyco"],"region":"Rheingau-Taunus-Kreis","city":["65343 Eltville am Rhein"]},"createdTime":"2021-05-10T14:47:45.000Z"},{"id":"recEyVtY06JjslC0s","fields":{"name":"Impfzentrum Wiesbaden","lat":50.0771565,"lon":8.2442462,"addr:street":"Friedrich-Ebert-Allee","addr:housenumber":"1","postal_code":["recIyM2o9Cn8ZbqXE"],"region":"Wiesbaden","city":["65185 Wiesbaden"]},"createdTime":"2021-05-10T14:47:45.000Z"},{"id":"recJH5pAaUFuwPpXh","fields":{"name":"Impfzentrum Landkreis Limburg-Weilburg","lat":50.4032951,"lon":8.0783232,"addr:street":"Senefelderstraße","addr:housenumber":"2","postal_code":["reccWayMgFrardDEy"],"region":"Landkreis Limburg-Weilburg","city":["65553 Limburg"]},"createdTime":"2021-05-10T14:47:45.000Z"},{"id":"recfJniTduX3owW8N","fields":{"name":"Impfzentrum Main-Taunus-Kreis","lat":50.0570227,"lon":8.4572551,"addr:street":"Mainzer Landstraße","addr:housenumber":"500","postal_code":["recB3gWGMHhE8GB49"],"region":"Main-Taunus-Kreis","city":["65795 Hattersheim"]},"createdTime":"2021-05-10T14:47:45.000Z"},{"id":"rec1Jr88yY9UisTqe","fields":{"name":"Impfzentrum Frankfurt","lat":50.1119426,"lon":8.6508741,"addr:street":"Ludwig-Erhard-Anlage","addr:housenumber":"1","postal_code":["rectlt18d2cVJanDf"],"region":"Frankfurt am Main","city":["60327 Frankfurt am Main"]},"createdTime":"2021-05-10T14:47:45.000Z"},{"id":"recYpDOBWXsKwcRXf","fields":{"name":"Impfzentrum Stadt Offenbach","lat":50.0828525,"lon":8.7765755,"addr:street":"Waldstraße","addr:housenumber":"312","postal_code":["recWXSLfSoq7UQmpk"],"region":"Offenbach am Main","city":["63071 Offenbach am Main"]},"createdTime":"2021-05-10T14:47:45.000Z"},{"id":"recDqXoI3GDTso9Ng","fields":{"name":"Impfzentrum Kreis Offenbach","lat":50.0642997,"lon":8.7971228,"addr:street":"Jahnstraße","addr:housenumber":"54","postal_code":["recmXVA3oiJL1MT4y"],"region":"Landkreis Offenbach","city":["63150 Heusenstamm"]},"createdTime":"2021-05-10T14:47:45.000Z"},{"id":"recFfUVY8SVIkfE52","fields":{"name":"Impfzentrum Hochtaunuskreis","lat":50.2115311,"lon":8.6474263,"addr:street":"Am Grünen Weg","addr:housenumber":"1","postal_code":["recyMf3rxuoFRFHCE"],"region":"Hochtaunuskreis","city":["61352 Bad Homburg v.d. Höhe"]},"createdTime":"2021-05-10T14:47:45.000Z"},{"id":"recLSCwHhSL5FW0PW","fields":{"name":"Impfzentrum Main-Kinzig-Kreis","lat":50.1495851,"lon":8.9205628,"postal_code":["rectbuI6NtIPalMOY"],"region":"Main-Kinzig-Kreis","city":["63452 Hanau"]},"createdTime":"2021-05-10T14:47:45.000Z"},{"id":"rec2Bz269pFEONLpX","fields":{"name":"Impfzentrum Main-Kinzig-Kreis","lat":50.2004862,"lon":9.1813496,"addr:street":"Am Hallenbad","addr:housenumber":"3a","postal_code":["recE7q8evWaZBk55h"],"region":"Main-Kinzig-Kreis","city":["63571 Gelnhausen"]},"createdTime":"2021-05-10T14:47:45.000Z"},{"id":"recBD9AFjBVmfcUoV","fields":{"name":"Impfzentrum Wetteraukreis","lat":50.2699837,"lon":9.1098797,"addr:street":"Industriestraße","addr:housenumber":"46","postal_code":["recsd4YNOftpzNuAk"],"region":"Wetteraukreis","city":["63654 Büdingen"]},"createdTime":"2021-05-10T14:47:45.000Z"},{"id":"recWxLJgKQyKw85xm","fields":{"name":"Impfzentrum Lahn-Dill-Kreis","lat":50.5821074,"lon":8.5487123,"addr:street":"Geraberger Platz","addr:housenumber":"2","postal_code":["recT2O2BFSENSrggZ"],"region":"Lahn-Dill-Kreis","city":["35633 Lahnau"]},"createdTime":"2021-05-10T14:47:45.000Z"},{"id":"recGs07hGno4pE6LN","fields":{"name":"Impfzentrum Landkreis Gießen","lat":50.5773603,"lon":8.6341473,"addr:street":"Ludwig-Rinn-Straße","addr:housenumber":"49","postal_code":["recTx9rX7AGufhYcA"],"region":"Landkreis Gießen","city":["35452 Heuchelheim"]},"createdTime":"2021-05-10T14:47:45.000Z"},{"id":"recxBNe2XtnAAItvE","fields":{"name":"Impfzentrum Vogelsbergkreis","lat":50.7387394,"lon":9.2503591,"addr:street":"An der Hessenhalle","addr:housenumber":"1","postal_code":["recev0xpNfrvcBg05"],"region":"Vogelsbergkreis","city":["36304 Alsfeld"]},"createdTime":"2021-05-10T14:47:45.000Z"},{"id":"recDnAPZdueOf2MMs","fields":{"name":"Impfzentrum Landkreis Fulda","lat":50.5576239,"lon":9.6855343,"postal_code":["recbOxYVWCJJ4ABQG"],"region":"Landkreis Fulda","city":["36037 Fulda"]},"createdTime":"2021-05-10T14:47:45.000Z"},{"id":"recCkwS68GAI2hJG1","fields":{"name":"Impfzentrum Landkreis Marburg-Biedenkopf","lat":50.8337456,"lon":8.7700565,"addr:street":"Afföllerstraße","addr:housenumber":"106","postal_code":["recaL3aSQOcLClbvV"],"region":"Landkreis Marburg-Biedenkopf","city":["35039 Marburg"]},"createdTime":"2021-05-10T14:47:45.000Z"},{"id":"recQPWFEsazlYKiZf","fields":{"name":"Impfzentrum Landkreis Waldeck-Frankenberg","lat":51.2730297,"lon":8.8603793,"postal_code":["recId3oNLKETy5dv3"],"region":"Landkreis Waldeck-Frankenberg","city":["34497 Korbach"]},"createdTime":"2021-05-10T14:47:45.000Z"},{"id":"recjafUwys0KvWOTC","fields":{"name":"Impfzentrum Schwalm-Eder-Kreis","lat":51.124026,"lon":9.2862819,"postal_code":["recbouuoxujT4WafX"],"region":"Schwalm-Eder-Kreis","city":["34560 Fritzlar"]},"createdTime":"2021-05-10T14:47:45.000Z"},{"id":"rec9TctR6ouKjNtKY","fields":{"name":"Impfzentrum Landkreis Hersfeld-Rotenburg","lat":51.0042684,"lon":9.7345682,"postal_code":["rec74F9EK2Gp1T7KY"],"region":"Landkreis Hersfeld-Rotenburg","city":["36199 Rotenburg an der Fulda"]},"createdTime":"2021-05-10T14:47:45.000Z"},{"id":"rec6kUkLOsmmrBpkq","fields":{"name":"Impfzentrum Werra-Meißner-Kreis","lat":51.1844971,"lon":10.0303216,"addr:street":"Südring","addr:housenumber":"37","postal_code":["recHtDpVupqUmwtm5"],"region":"Werra-Meißner-Kreis","city":["37269 Eschwege"]},"createdTime":"2021-05-10T14:47:45.000Z"},{"id":"rec3ShvJtTGcUhKUj","fields":{"name":"Impfzentrum Stadt Kassel","lat":51.2968892,"lon":9.484537,"postal_code":["recpWDZCh6Iy1riOw"],"region":"Kassel","city":["34121 Kassel"]},"createdTime":"2021-05-10T14:47:45.000Z"},{"id":"recjjWfRBKJWr2QJF","fields":{"name":"Impfzentrum Landkreis Kassel","lat":51.4038148,"lon":9.3719007,"addr:street":"Flugplatzstraße","postal_code":["rect1tdCL9CLNsa6C"],"region":"Landkreis Kassel","city":["34379 Calden"]},"createdTime":"2021-05-10T14:47:45.000Z"}]}